[
  {
    "id": 5334380,
    "shortName": "Corner1",
    "name": "test corner 1",
    "generalLongitude": 116.506078,
    "generalLatitude":  39.985874,
    "longitude": 116.506078,
    "latitude":  39.985874,
    "street": "Beyers Naude",
    "street1": "Beyers Naude",
    "street2": "",
    "street3": "Fairlands",
    "postalCode": "2170",
    "arEntityType": "Test",
    "city": "Johannesburg",
    "province": "Gauteng",
    "phoneIcon": "fnb.locators.atm.icon.ldpi.png",
    "partnerId": 877361,
    "partnerShortName": "Fnb Wesbank",
    "altitude": 0.0,
    "icon": "fnb.locators.atm.icon.ldpi.png",
    "storeLevel": "",
    "storeLevelShort": "",
    "isStoreClosed": "Online",
    "distance": 0.17674113023394528,
    "scale": 1.0,
    "offsetX": -70.0,
    "offsetY": -150.0,
    "skin": "fnb",
    "color": "#009999",
    "opacity": 1.0,
    "cluster": false,
    "clusterName": "",
    "atmChildren": [],
    "branchChildren": [],
    "termId": 877361,
    "status": "Online",
    "acceptCashDeposit": false,
    "acceptCoinDeposit": false,
    "acceptEnvelopeDeposit": false,
    "hasCashDispenser": false,
    "hasChequeReader": false,
    "printStatement": false,
    "adt": false,
    "generatorAvailable": false,
    "tellersInBranch": false,
    "wifiAvailable": false,
    "eBanker": false,
    "smartIdCapable": false,
    "cardDeliverAvailable": false,
    "countryCode": 0,
    "branchRevamp": false
  },
  {
    "id": 5334381,
    "shortName": "Corner2",
    "name": "test corner 2",
    "generalLongitude": 116.506093,
    "generalLatitude":  39.985327,
    "longitude": 116.506093,
    "latitude":  39.985327,
    "street": "Beyers Naude",
    "street1": "Beyers Naude",
    "street2": "",
    "street3": "Fairlands",
    "postalCode": "2170",
    "arEntityType": "Test",
    "city": "Johannesburg",
    "province": "Gauteng",
    "phoneIcon": "fnb.locators.atm.icon.ldpi.png",
    "partnerId": 877361,
    "partnerShortName": "Fnb Wesbank",
    "altitude": 0.0,
    "icon": "fnb.locators.atm.icon.ldpi.png",
    "storeLevel": "",
    "storeLevelShort": "",
    "isStoreClosed": "Online",
    "distance": 0.17674113023394528,
    "scale": 1.0,
    "offsetX": -70.0,
    "offsetY": -150.0,
    "skin": "fnb",
    "color": "#009999",
    "opacity": 1.0,
    "cluster": false,
    "clusterName": "",
    "atmChildren": [],
    "branchChildren": [],
    "termId": 877361,
    "status": "Online",
    "acceptCashDeposit": false,
    "acceptCoinDeposit": false,
    "acceptEnvelopeDeposit": false,
    "hasCashDispenser": false,
    "hasChequeReader": false,
    "printStatement": false,
    "adt": false,
    "generatorAvailable": false,
    "tellersInBranch": false,
    "wifiAvailable": false,
    "eBanker": false,
    "smartIdCapable": false,
    "cardDeliverAvailable": false,
    "countryCode": 0,
    "branchRevamp": false
  },
  {
    "id": 5334382,
    "shortName": "Corner3",
    "name": "test corner 3",
    "generalLongitude": 116.505288,
    "generalLatitude":  39.985340,
    "longitude": 116.505288,
    "latitude":  39.985340,
    "street": "Beyers Naude",
    "street1": "Beyers Naude",
    "street2": "",
    "street3": "Fairlands",
    "postalCode": "2170",
    "arEntityType": "Test",
    "city": "Johannesburg",
    "province": "Gauteng",
    "phoneIcon": "fnb.locators.atm.icon.ldpi.png",
    "partnerId": 877361,
    "partnerShortName": "Fnb Wesbank",
    "altitude": 0.0,
    "icon": "fnb.locators.atm.icon.ldpi.png",
    "storeLevel": "",
    "storeLevelShort": "",
    "isStoreClosed": "Online",
    "distance": 0.17674113023394528,
    "scale": 1.0,
    "offsetX": -70.0,
    "offsetY": -150.0,
    "skin": "fnb",
    "color": "#009999",
    "opacity": 1.0,
    "cluster": false,
    "clusterName": "",
    "atmChildren": [],
    "branchChildren": [],
    "termId": 877361,
    "status": "Online",
    "acceptCashDeposit": false,
    "acceptCoinDeposit": false,
    "acceptEnvelopeDeposit": false,
    "hasCashDispenser": false,
    "hasChequeReader": false,
    "printStatement": false,
    "adt": false,
    "generatorAvailable": false,
    "tellersInBranch": false,
    "wifiAvailable": false,
    "eBanker": false,
    "smartIdCapable": false,
    "cardDeliverAvailable": false,
    "countryCode": 0,
    "branchRevamp": false
  },
  {
    "id": 5334383,
    "shortName": "Corner4",
    "name": "test corner 4",
    "generalLongitude": 116.505286,
    "generalLatitude":  39.985913,
    "longitude": 116.505286,
    "latitude":  39.985913,
    "street": "Beyers Naude",
    "street1": "Beyers Naude",
    "street2": "",
    "street3": "Fairlands",
    "postalCode": "2170",
    "arEntityType": "Test",
    "city": "Johannesburg",
    "province": "Gauteng",
    "phoneIcon": "fnb.locators.atm.icon.ldpi.png",
    "partnerId": 877361,
    "partnerShortName": "Fnb Wesbank",
    "altitude": 0.0,
    "icon": "fnb.locators.atm.icon.ldpi.png",
    "storeLevel": "",
    "storeLevelShort": "",
    "isStoreClosed": "Online",
    "distance": 0.17674113023394528,
    "scale": 1.0,
    "offsetX": -70.0,
    "offsetY": -150.0,
    "skin": "fnb",
    "color": "#009999",
    "opacity": 1.0,
    "cluster": false,
    "clusterName": "",
    "atmChildren": [],
    "branchChildren": [],
    "termId": 877361,
    "status": "Online",
    "acceptCashDeposit": false,
    "acceptCoinDeposit": false,
    "acceptEnvelopeDeposit": false,
    "hasCashDispenser": false,
    "hasChequeReader": false,
    "printStatement": false,
    "adt": false,
    "generatorAvailable": false,
    "tellersInBranch": false,
    "wifiAvailable": false,
    "eBanker": false,
    "smartIdCapable": false,
    "cardDeliverAvailable": false,
    "countryCode": 0,
    "branchRevamp": false
  },
  {
    "id": 55555,
    "shortName": "路标",
    "name": "route marker",
    "generalLongitude": 116.505629,
    "generalLatitude":  39.985914,
    "longitude": 116.505629,
    "latitude":  39.985914,
    "street": "Beyers Naude",
    "street1": "Beyers Naude",
    "street2": "",
    "street3": "Fairlands",
    "postalCode": "2170",
    "arEntityType": "Test",
    "city": "Johannesburg",
    "province": "Gauteng",
    "phoneIcon": "fnb.locators.atm.icon.ldpi.png",
    "partnerId": 877361,
    "partnerShortName": "Fnb Wesbank",
    "altitude": 0.0,
    "icon": "fnb.locators.atm.icon.ldpi.png",
    "storeLevel": "",
    "storeLevelShort": "",
    "isStoreClosed": "Online",
    "distance": 0.17674113023394528,
    "scale": 1.0,
    "offsetX": -70.0,
    "offsetY": -150.0,
    "skin": "fnb",
    "color": "#009999",
    "opacity": 1.0,
    "cluster": false,
    "clusterName": "",
    "atmChildren": [],
    "branchChildren": [],
    "termId": 877361,
    "status": "Online",
    "acceptCashDeposit": false,
    "acceptCoinDeposit": false,
    "acceptEnvelopeDeposit": false,
    "hasCashDispenser": false,
    "hasChequeReader": false,
    "printStatement": false,
    "adt": false,
    "generatorAvailable": false,
    "tellersInBranch": false,
    "wifiAvailable": false,
    "eBanker": false,
    "smartIdCapable": false,
    "cardDeliverAvailable": false,
    "countryCode": 0,
    "branchRevamp": false
  },
  {
    "id": 101,
    "shortName": "101",
    "name": "route marker",
    "generalLongitude": 116.506306,
    "generalLatitude":  39.985868,
    "longitude": 116.506306,
    "latitude":  39.985868
  },
  {
    "id": 102,
    "shortName": "102",
    "name": "route marker",
    "generalLongitude": 116.506296,
    "generalLatitude":  39.984255,
    "longitude": 116.506296,
    "latitude":  39.984255
  },
  {
    "id": 103,
    "shortName": "103",
    "name": "route marker",
    "generalLongitude": 116.505272,
    "generalLatitude":  39.984262,
    "longitude": 116.505272,
    "latitude":  39.984262
  },

  {
    "id": 200,
    "shortName": "200",
    "name": "route marker",
    "generalLongitude":116.499122,
    "generalLatitude": 39.984786,
    "longitude":       116.499122,
    "latitude":        39.984786
  },
  {
    "id": 201,
    "shortName": "103",
    "name": "route marker",
    "generalLongitude": 116.499123,
    "generalLatitude":  39.984727,
    "longitude":        116.499123,
    "latitude":         39.984727
  },
  {
    "id": 202,
    "shortName": "103",
    "name": "route marker",
    "generalLongitude": 116.499970,
    "generalLatitude":  39.984751,
    "longitude":        116.499970,
    "latitude":         39.984751
  },
  {
    "id": 203,
    "shortName": "103",
    "name": "route marker",
    "generalLongitude": 116.499974,
    "generalLatitude":  39.984806,
    "longitude":        116.499974,
    "latitude":         39.984806
  },
  {
    "id": 204,
    "shortName": "103",
    "name": "route",
    "generalLongitude": 116.499503,
    "generalLatitude":  39.984769,
    "longitude":        116.499503,
    "latitude":         39.984769
  },
  {
    "id": 300,
    "shortName": "103",
    "name": "route",
    "generalLongitude": 116.499034,
    "generalLatitude":  39.984765,
    "longitude": 116.499034,
    "latitude":  39.984765
  }
]
